GPS_TIME (ms),LONG (deg),LAT (deg),ELEV (m),SPEED (m/s),ACCEL_X (m/s^2),ACCEL_Y (m/s^2),ACCEL_Z (m/s^2),SYSTEM_TIME (ms),RPM,THROTTLE (%),SATELLITE_COUNT,GPS_ACCURACY (m),STEERING (deg),BRAKES (psi),ANALOG_1,ANALOG_2,PITCH_RATE (rad/s),ROLL_RATE (rad/s),YAW_RATE (rad/s),PITCH (rad),ROLL (rad),MATH_GRID_X,MATH_GRID_Y,MATH_GRID_Z,MATH_GRID_X_DELTA,MATH_GRID_Y_DELTA,MATH_GRID_X_SPEED,MATH_GRID_Y_SPEED,MATH_GRID_X_ACCEL,MATH_GRID_Y_ACCEL,MATH_DISTANCE_FROM_PREV,MATH_ELAPSED_DISTANCE,MATH_VELOCITY,MATH_RADIUS,MATH_RADIUS_DIFFERENTIAL,MATH_TURN_NUMBER,MATH_DETECTED_RADIUS,MATH_TURN_CENTER_X,MATH_TURN_CENTER_Y,MATH_HEADING,MATH_ACCEL_2D_SUM,MATH_FILTER_ACCEL_X,MATH_FILTER_ACCEL_Y,MATH_FILTER_ACCEL_Z,MATH_FILTER_ACCEL_2D_SUM,MATH_FILTER_RPM,MATH_FILTER_THROTTLE,MATH_ELAPSED_TIME,MATH_DELTA_TIME,MATH_DELTA_TIME_DIFFERENTIAL,MATH_DELTA_DISTANCE,MATH_DELTA_DISTANCE_DIFFERENTIAL,MATH_POINT_COUNT,MATH_CALC_ACCEL_X,MATH_CALC_ACCEL_Y,MATH_CALC_ACCEL_2D_SUM,MATH_FILTER_PITCH,MATH_FILTER_ROLL,MATH_ELAPSED_DISTANCE_NORMALIZED,MATH_USER_DEFINED_1,MATH_USER_DEFINED_2
66607000,-117.7296417,33.66648833,98.6,0.514444444,-0.708559334,9.490130424,1.852046013,1.53228E+12,0,0,14,0.699999988,0,0,0,0,-0.095718384,-0.035797123,-0.01651001,0.944173395,-0.051064541,-2472536.99,-4703574.937,98.6,0,0,-0.024027916,0.088672275,0.00908619,-0.448820007,0,0,0,-0.064196354,0,0,0,0,0,0,9.516545161,-0.728552806,5.455601026,0.440391095,5.504032317,0,0,0,0,0,0,0,1,-61.45018963,1.77944971,61.47594852,0,0,0,0,0
66607100,-117.7296417,33.66648833,98.7,0.720222222,-1.094386935,9.96337986,0.731771648,1.53228E+12,0,0,14,0.699999988,0,0,0,0,0.013687135,-0.025527954,0.031021118,0.948973819,-0.052833456,-2472536.99,-4703574.937,98.7,0,0,-0.032811231,0.001576935,-0.087833144,-0.870953408,0,0,0,-0.000939237,0.000632571,0,0,0,0,0,10.0233039,-0.960259429,6.561314484,0.244657095,6.63120999,0,0,100,0,0,0,0,2,-62.52962863,2.402870943,62.57578002,0.004800424,-0.001768915,0,0,0
66607200,-117.7296417,33.66648833,98.7,1.131777777,-1.356762648,9.748158455,0.971537232,1.53228E+12,0,0,14,0.699999988,0,0,0,0,-0.008102417,-0.005981446,-0.008117676,0.952116632,-0.056114373,-2472536.99,-4703574.937,98.7,0,0,-0.025441323,-0.159391751,0.073699072,-1.609686858,0,0,0,-0.068962576,-0.000680233,0,0,0,0,0,9.84212366,-1.204910075,7.661830082,-0.012476753,7.755994359,0,0,200,0,0,0,0,3,-61.68886082,3.030328355,61.76324505,0.007943237,-0.005049832,0,0,0
66607300,-117.7296417,33.66648833,98.7,1.543333332,-1.616687179,9.786744118,0.600562632,1.53228E+12,0,0,14,0.699999988,0,0,0,0,0.023910522,-0.005294799,-0.016098022,0.955240366,-0.06178887,-2472536.99,-4703574.937,98.7,0,0,0.013326407,-0.370458455,0.387677308,-2.110667041,0,0,0,-0.407413568,-0.00338451,0,0,0,0,180,9.919376889,-1.470906812,8.644649049,-0.33510907,8.768895257,0,0,300,0,0,0,0,4,-58.95305182,3.799724671,59.0753775,0.011066972,-0.010724329,0,0,0
66607400,-117.7296417,33.66648833,98.7,2.057777776,-1.890720248,10.07421303,-0.306759566,1.53228E+12,0,0,14,0.699999988,0,0,0,0,0.014785766,0.024673462,0.010391235,0.958040045,-0.065026778,-2472536.99,-4703574.974,98.7,0,-0.037106497,0.037354324,-0.638901338,0.240279162,-2.684428828,0.037106497,0.037106497,0,-4.750979867,-0.043435663,0,0,0,0,180,10.25010201,-1.738235723,9.580451797,-0.713041862,9.736863975,0,0,400,0,0,0,0,5,-54.31941576,4.53733609,54.50858967,0.01386665,-0.013962237,0.037106497,0,0
66607500,-117.7296417,33.66648833,98.7,2.57222222,-2.047513008,10.37227154,-1.145057917,1.53228E+12,0,0,14,0.699999988,0,0,0,0,0.02734375,-0.002548217,0.003677368,0.963873094,-0.070385496,-2472536.99,-4703575.049,98.7,0,-0.111319491,0.055223825,-0.990315269,0.178695011,-3.514139309,0.074212993,0.111319491,0,57.02527712,0.61776257,0,0,0,0,180,10.57243238,-2.038734885,10.38390491,-1.194097661,10.58215106,0,0,500,0,0,0,0,6,-47.79561251,5.152853143,48.07257503,0.0196997,-0.019320955,0.111319491,0,0
66607600,-117.7296417,33.66648667,98.7,3.292444442,-2.331478834,10.64229584,-1.787698746,1.53228E+12,0,0,14,0.699999988,0,0,0,0,0.048233032,-0.036468502,0.009155273,0.969985668,-0.076794878,-2472536.99,-4703575.16,98.7,0,-0.222638982,0.109034243,-1.394859784,0.538104184,-4.045445148,0.111319492,0.222638982,0,-9.090436881,-0.66115714,0,0,0,0,180,10.89468927,-2.31361017,10.94238677,-1.766355939,11.18430241,0,0,600,0,0,0,0,7,-39.37715997,5.6471167,39.78002834,0.025812274,-0.025730337,0.222638982,0,0
66607700,-117.7296417,33.666485,98.7,3.85833333,-2.509178877,10.75333405,-2.963016748,1.53228E+12,0,0,14,0.699999988,0,0,0,0,0.039672852,-0.007293699,-0.007629395,0.979827282,-0.08669443,-2472536.99,-4703575.345,98.7,0,-0.408171467,0.151638364,-1.874490673,0.426041208,-4.796308893,0.185532484,0.408171467,0,-98.11106017,-0.890206233,0,0,-2472535.102,-4703575.253,177.1870225,11.04219959,-2.505174047,11.27752871,-2.137474195,11.55242618,0,0,700,0,0,0,0,8,-29.06578604,6.105559183,29.70013083,0.035653888,-0.035629889,0.408171467,0,0
66607800,-117.7296417,33.66648333,98.7,4.527111107,-2.613333941,10.85166931,-3.239752054,1.53228E+12,0,0,14,0.699999988,0,0,0,0,0.023971558,0.009811402,0.000549316,0.982558878,-0.088790996,-2472536.959,-4703575.605,98.7,0.03088294,-0.667916944,0.19060801,-2.395728389,0.389696463,-5.212377161,0.261574978,0.669746445,0,248.5192334,3.466302936,0,0,-2472555.916,-4703577.727,173.612381,11.16191028,-2.692817203,11.4158358,-2.484522482,11.72913345,0,0,800,0,0,0,0,9,-16.85766882,6.391455081,18.02863545,0.038385483,-0.037726455,0.669746445,0,0
66607900,-117.7296417,33.66648,98.7,5.247333329,-2.969356775,10.82646179,-3.400946856,1.53228E+12,0,0,14,0.699999988,0,0,0,0,0.015808104,0.028533936,0.000564575,0.990465623,-0.097322354,-2472536.928,-4703575.902,98.7,0.061765879,-0.96476892,0.249769182,-2.976889641,0.591611723,-5.811612513,0.298454103,0.968200547,0,-93.98930813,-3.425085415,0,0,-2472553.118,-4703577.436,174.586394,11.22627964,-2.848997109,11.23560445,-2.917415779,11.59118595,0,0,900,0,0,0,0,10,-2.734048271,6.534403031,7.083321461,0.046292229,-0.046257813,0.968200547,0,0
66608000,-117.72964,33.66647667,98.7,5.864666662,-2.818277359,10.76946926,-3.660208702,1.53228E+12,0,0,14,0.699999988,0,0,0,0,0.015350341,0.021209717,-0.009674072,0.995739047,-0.103909548,-2472536.898,-4703576.273,98.7,0.092648819,-1.335833889,0.325083576,-3.5808558,0.753143935,-6.039661598,0.372347911,1.340548458,0,-70.20465461,0.237846535,0,0,-2472529.441,-4703575.466,173.8200174,11.13212268,-2.940890929,10.73634469,-3.250209766,11.13184337,0,0,1000,0,0,0,0,11,13.30348882,6.517585625,14.81424102,0.051565652,-0.052845007,1.340548458,0,0
66608100,-117.72964,33.66647333,98.7,6.533444439,-3.039065361,10.94588566,-3.568592787,1.53228E+12,0,0,14,0.699999988,0,0,0,0,-0.045349125,0.067825317,0.016448975,1.000943202,-0.107490635,-2472536.836,-4703576.718,98.7,0.154414698,-1.781111851,0.39524913,-4.243047258,0.701655543,-6.621914573,0.44954142,1.790089878,0,-241.4920382,-1.712873835,0,0,-2472581.078,-4703582.628,172.3912502,11.35994415,-3.001088733,10.69332363,-3.29892543,11.10647125,0,0,1100,0,0,0,0,12,30.87130239,6.381700986,31.52401337,0.056769807,-0.056426094,1.790089878,0,0
66608200,-117.72964,33.66646833,98.7,7.25366666,-3.211889267,10.49546528,-3.73069191,1.53228E+12,0,0,14,0.699999988,0,0,0,0,-0.073547371,0.140579224,-0.018753052,1.005275681,-0.11367703,-2472536.774,-4703577.201,98.7,0.216180578,-2.263496313,0.48308227,-4.869697022,0.878331399,-6.266497648,0.486322725,2.276412603,0,-106.4522006,1.350398376,0,0,-2472544,-4703577.881,174.623316,10.9759293,-3.029671282,10.72075797,-3.297955288,11.14062653,0,0,1200,0,0,0,0,13,0.733305251,6.119853977,6.163631178,0.061102286,-0.062612489,2.276412603,0,0
66608300,-117.7296383,33.66646333,98.6,7.768111104,-3.152699709,11.16717911,-3.700836658,1.53228E+12,0,0,14,0.699999988,0,0,0,0,-0.039978027,0.029357908,0.019515991,1.011606506,-0.12011469,-2472536.743,-4703577.757,98.6,0.247063518,-2.820093767,0.583535114,-5.52606595,1.00452844,-6.563689278,0.557453569,2.833866172,0,-114.3642753,-0.079120747,0,0,-2472522.659,-4703576.697,175.6934174,11.60368065,-3.057822572,10.66150301,-3.226952265,11.09134461,0,0,1300,0,0,0,0,14,-0.114589046,5.958911404,5.960013068,0.067433112,-0.069050149,2.833866172,0,0
66608400,-117.7296383,33.66645833,98.6,8.231111104,-3.230823994,10.33390331,-3.618656874,1.53228E+12,0,0,14,0.699999988,0,0,0,0,-0.013442994,0.014892577,-0.024902344,1.01433458,-0.125576139,-2472536.681,-4703578.388,98.6,0.308829397,-3.450904214,0.691559781,-6.135490733,1.080246667,-6.094247823,0.63382714,3.467693312,0,-112.8253832,0.015388921,0,0,-2472520.533,-4703576.489,173.2908843,10.8271779,-3.020139515,10.62961853,-3.052982876,11.05034085,0,0,1400,0,0,0,0,15,-0.437182465,5.762820452,5.779379557,0.070161185,-0.074511598,3.467693312,0,0
66608500,-117.7296383,33.66645167,98.6,8.745555548,-2.598434448,9.911165237,-2.41890645,1.53228E+12,0,0,14,0.699999988,0,0,0,0,-0.405380249,0.239074692,0.03692627,1.010586642,-0.125283372,-2472536.589,-4703579.056,98.6,0.401478217,-4.118821159,0.802108387,-6.740063405,1.105486068,-6.045726727,0.674312131,4.142005443,0,-140.0975099,-0.272721266,0,0,-2472549.457,-4703580.501,173.5946566,10.24612404,-2.945194764,10.56176222,-2.86241573,10.96471584,0,0,1500,0,0,0,0,16,-0.488704426,5.576315421,5.597689317,0.066413247,-0.074218831,4.142005443,0,0
66608600,-117.7296367,33.666445,98.6,9.311444436,-2.477541924,10.66392612,-0.554255664,1.53228E+12,0,0,14,0.699999988,0,0,0,0,-0.220291153,0.176635727,0.067459106,1.013858968,-0.124217212,-2472536.527,-4703579.798,98.6,0.463244095,-4.860951099,0.910133054,-7.306910938,1.080246664,-5.668475325,0.744695825,4.886701267,0,-171.3036839,-0.312061741,0,0,-2472514.974,-4703577.631,174.2574238,10.94794658,-2.850961583,10.55142992,-2.614927484,10.92980583,0,0,1600,0,0,0,0,17,-0.434140449,5.314804761,5.332506688,0.069685574,-0.073152672,4.886701267,0,0
66608700,-117.729635,33.66643833,98.5,9.774444436,-3.16949749,10.86832714,-2.741913795,1.53228E+12,0,0,14,0.699999988,0,0,0,0,-0.030273439,0.032226563,0.081481934,1.020002993,-0.129804123,-2472536.434,-4703580.577,98.5,0.555892915,-5.640187534,1.010585898,-7.856169578,1.004528443,-5.492586406,0.784724936,5.671426203,0,-250.5079835,-0.792042995,0,0,-2472504.292,-4703576.361,172.5260552,11.32105336,-2.699375782,10.5596522,-2.472270644,10.89921484,0,0,1700,0,0,0,0,18,-0.483945622,5.239126435,5.261430334,0.075829599,-0.078739582,5.671426203,0,0
66608800,-117.729635,33.66643,98.5,10.28888888,-2.680776119,10.08851624,-2.944938421,1.53228E+12,0,0,14,0.699999988,0,0,0,0,-0.103302009,0.19190979,-0.08543396,1.017212925,-0.1308269,-2472536.311,-4703581.431,98.5,0.679424673,-6.493636963,1.098419038,-8.387232812,0.878331401,-5.310632341,0.862343333,6.533769536,0,-468.2136067,-2.177056232,0,0,-2472683.8,-4703602.343,171.9298142,10.43861679,-2.474104962,10.56603431,-2.33493766,10.85183286,0,0,1800,0,0,0,0,19,-0.433847871,5.172024986,5.19018944,0.07303953,-0.079762359,6.533769536,0,0
66608900,-117.7296333,33.66642333,98.5,10.80333332,-2.227897406,10.41704464,-1.134151816,1.53228E+12,0,0,14,0.699999988,0,0,0,0,0.102996841,-0.308685303,0.188415527,1.01495687,-0.138842501,-2472536.187,-4703582.321,98.5,0.802956432,-7.38419289,1.196448898,-8.932973674,0.980298601,-5.45740862,0.89908284,7.432852377,0,-391.874696,0.763389107,0,0,-2472624.671,-4703594.141,172.3912502,10.65262155,-2.276033498,10.56113456,-2.234691223,10.8036055,0,0,1900,0,0,0,0,20,-0.324864623,5.174547596,5.184735273,0.070783475,-0.08777796,7.432852377,0,0
66609000,-117.7296317,33.66641333,98.5,11.31777777,-1.953812957,10.34688187,-1.471491337,1.53228E+12,0,0,14,0.699999988,0,0,0,0,0.048538208,-0.027526854,0.013427734,1.018238604,-0.141134952,-2472536.064,-4703583.286,98.5,0.92648819,-8.34896181,1.300637175,-9.460519131,1.041882768,-5.27545457,0.972645447,8.405497823,0,-348.2579492,0.436167468,0,0,-2472505.292,-4703578.856,171.8070884,10.52973644,-2.100311975,10.63211654,-2.23538461,10.83758333,0,0,2000,0,0,0,0,21,-0.214733022,5.245853397,5.250246483,0.074065209,-0.090070411,8.405497823,0,0
66609100,-117.72963,33.666405,98.4,11.72933332,-1.957812428,11.07729244,-2.231829882,1.53228E+12,0,0,14,0.699999988,0,0,0,0,0.0971222,-0.132736206,0.015319824,1.027120122,-0.145777505,-2472535.909,-4703584.251,98.4,1.080902889,-9.31373073,1.397354586,-9.991218457,0.967174112,-5.30699326,0.977048089,9.382545912,0,-549.6443137,-2.013863645,0,0,-2472598.955,-4703593.847,171.3456496,11.24897495,-1.868134298,10.62832705,-2.275636037,10.79125858,0,0,2100,0,0,0,0,22,-0.101133643,5.148648791,5.149641967,0.082946728,-0.094712964,9.382545912,0,0
66609200,-117.7296283,33.666395,98.4,12.29522221,-1.80394721,10.33832932,-2.687406301,1.53228E+12,0,0,14,0.699999988,0,0,0,0,0.067993164,-0.021087643,-0.044876099,1.027698945,-0.149007538,-2472535.755,-4703585.327,98.4,1.235317587,-10.38981914,1.484581981,-10.52689119,0.872273945,-5.356727369,1.087110928,10.46965684,0,-1180.347717,-6.307034029,0,0,8840676627,1264255542,171.8340126,10.49453565,-1.643432831,10.5889201,-2.272866434,10.71569412,0,0,2200,0,0,0,0,23,0.082315622,4.863257415,4.863954003,0.08352555,-0.097942997,10.46965684,0,0
66609300,-117.7296267,33.66638667,98.4,12.80966666,-0.993917584,11.11421013,-2.079492807,1.53228E+12,0,0,14,0.699999988,0,0,0,0,0.063690193,-0.097457886,-0.018493652,1.033937653,-0.155940192,-2472535.601,-4703586.403,98.4,1.389732286,-11.46590755,1.561309782,-11.05783313,0.767278007,-5.309419344,1.087110927,11.55676777,0,-8672.676304,-74.92328587,0,0,-2472658.16,-4703603.441,172.085701,11.15856348,-1.3266294,10.61290522,-2.150107284,10.69549918,0,0,2300,0,0,0,0,24,0.236537731,4.537840612,4.544001268,0.089764258,-0.104875651,11.55676777,0,0
66609400,-117.729625,33.666375,98.4,13.27266666,-1.034860492,10.52371979,-2.347551346,1.53228E+12,0,0,14,0.699999988,0,0,0,0,0.162063614,-0.237808228,0.026992798,1.038254807,-0.162912004,-2472535.446,-4703587.553,98.4,1.544146984,-12.61620896,1.58907313,-11.59629583,0.277633487,-5.384626986,1.160619325,12.71738709,0,365.8010681,90.38477372,0,0,-2472818.944,-4703625.024,172.4706794,10.57447939,-0.984382241,10.56977922,-1.914865643,10.61551888,0,0,2400,0,0,0,0,25,0.390666134,4.008260503,4.02725369,0.094081412,-0.111847463,12.71738709,0,0
66609500,-117.7296233,33.666365,98.3,13.73566665,-0.80621022,11.08607292,-2.156239748,1.53228E+12,0,0,14,0.699999988,0,0,0,0,0.040802006,-0.080230713,-0.033782959,1.043913615,-0.168329796,-2472535.292,-4703588.741,98.3,1.698561683,-13.80361686,1.585135783,-12.1154714,-0.039373473,-5.191755696,1.197406124,13.91479322,0,255.9694527,-1.098316154,0,0,-2472697.915,-4703609.285,172.7999098,11.1153492,-0.639900053,10.52981694,-1.515440913,10.54924247,0,0,2500,0,0,0,0,26,0.541102911,3.769789688,3.808425745,0.099740221,-0.117265256,13.91479322,0,0
66609600,-117.7296217,33.66635333,98.3,14.2501111,-0.158096492,10.4556284,-2.906359911,1.53228E+12,0,0,14,0.699999988,0,0,0,0,-0.054290764,-0.128173828,-0.007629395,1.049178727,-0.17466052,-2472535.137,-4703590.002,98.3,1.852976381,-15.06523775,1.578371622,-12.58976497,-0.067641612,-4.742935699,1.271035476,15.18582869,0,300.2188505,0.442493978,0,0,-2472906.546,-4703634.82,173.1193849,10.45682359,-0.337593672,10.35134068,-1.217554903,10.35684428,0,0,2600,0,0,0,0,27,0.685729252,3.576053173,3.641205969,0.105005332,-0.123595979,15.18582869,0,0
66609700,-117.72962,33.66634167,98.3,14.7131111,-0.204974532,10.26808453,-1.319453955,1.53228E+12,0,0,14,0.699999988,0,0,0,0,-0.027740465,-0.284088135,-0.002243042,1.05207233,-0.186694869,-2472534.983,-4703591.301,98.3,2.007391079,-16.36396515,1.516080762,-13.06854674,-0.622908593,-4.787817706,1.307874895,16.49370359,0,181.7281345,-1.18490716,0,0,-2472745.614,-4703615.686,173.3962427,10.2701302,-0.209723861,10.29498437,-1.009033157,10.29712034,0,0,2700,0,0,0,0,28,0.816392446,3.449754456,3.545039129,0.107898935,-0.135630328,16.49370359,0,0
66609800,-117.7296183,33.66633,98.3,14.97033332,-0.700011015,10.26130009,-1.819957972,1.53228E+12,0,0,14,0.699999988,0,0,0,0,0.228820801,-0.03501891,-0.112442017,1.051243547,-0.186613515,-2472534.828,-4703592.674,98.3,2.161805777,-17.73690553,1.435819445,-13.47442558,-0.802613178,-4.058788451,1.381596615,17.8753002,0,184.1730479,0.024449134,1,184.1730479,-2473010.76,-4703645.507,173.665562,10.28514924,-0.176361439,10.21445625,-0.973032271,10.21597866,0,0,2800,0,0,0,0,29,0.975348582,3.276030654,3.418140094,0.107070153,-0.135548974,17.8753002,0,0
66609900,-117.7296167,33.66631667,98.2,15.12466665,0.209482908,10.4957037,-1.397777796,1.53228E+12,0,0,14,0.699999988,0,0,0,0,-0.048782341,-0.207870483,0.009475708,1.046975863,-0.195893589,-2472534.674,-4703594.084,98.2,2.316220477,-19.14695242,1.34263555,-13.87072151,-0.931838947,-3.96295931,1.418476687,19.29377689,0,183.1186597,-0.010543882,1,183.1186597,-2472594.402,-4703599.911,174.4275859,10.49779402,-0.018744402,10.1579938,-0.920632598,10.15801109,0,0,2900,0,0,0,0,30,1.15990122,3.162176816,3.368194332,0.102802468,-0.144829048,19.29377689,0,0
66610000,-117.729615,33.66630333,98.2,15.12466665,0.955132067,9.196575165,0.33474344,1.53228E+12,0,0,14,0.699999988,0,0,0,0,-0.23449707,-0.167678848,0.131561279,1.041811792,-0.197086479,-2472534.55,-4703595.531,98.2,2.439752235,-20.5941058,1.215731806,-14.23426572,-1.269037436,-3.635442025,1.452416263,20.74619315,0,160.4236565,-0.226950033,1,160.4236565,-2472598.797,-4703600.287,175.7668429,9.246040884,0.228529075,10.10206717,-0.735026911,10.10465174,0,0,3000,0,0,0,0,31,1.37007382,3.026964873,3.322592153,0.097638398,-0.146021938,20.74619315,0,0
66610100,-117.7296133,33.66629,98.2,15.12466665,1.119250536,9.823288918,1.557317257,1.53228E+12,0,0,14,0.699999988,0,0,0,0,-0.419250458,-0.352325469,0.221191406,1.036346321,-0.197370139,-2472534.458,-4703597.016,98.2,2.532401054,-22.07836567,1.052584273,-14.59611168,-1.631475335,-3.618459635,1.487148677,22.23334183,0,140.6259906,-0.197976659,1,140.6259906,-2473525.305,-4703658.12,176.4710965,9.886846156,0.512726862,10.07274519,-0.663880166,10.08578626,0,0,3100,0,0,0,0,32,1.581782698,3.108697466,3.487984581,0.092172927,-0.146305599,22.23334183,0,0
66610200,-117.7296133,33.66627667,98.2,15.38188888,1.790118694,10.53147221,2.155361176,1.53228E+12,0,0,14,0.699999988,0,0,0,0,0.084045418,-0.109039307,0.006500244,1.04399291,-0.191371139,-2472534.365,-4703598.537,98.2,2.625049873,-23.59973205,0.914070402,-14.90082407,-1.38513871,-3.047123908,1.524184847,23.75752668,0,176.3275787,0.357015881,1,176.3275787,-2472609.512,-4703602.35,177.0954026,10.68252928,0.87311212,10.19483474,-0.599186057,10.23215423,0,0,3200,0,0,0,0,33,1.828850774,3.006279464,3.518865069,0.099819516,-0.140306599,23.75752668,0,0
66610300,-117.7296133,33.66626333,98.2,15.84488888,0.751016259,9.024158478,1.055760026,1.53228E+12,0,0,14,0.699999988,0,0,0,0,-0.04969788,0.0753479,-0.05279541,1.039805987,-0.185574279,-2472534.303,-4703600.058,98.2,2.686815752,-25.12109842,0.729721765,-15.25442145,-1.843486367,-3.535973808,1.522619671,25.28014635,0,144.2868249,-0.320407538,1,144.2868249,-2472609.327,-4703602.342,178.2562862,9.055355413,1.154108063,10.22779653,-0.764278885,10.29270554,0,0,3300,0,0,0,0,34,2.108033672,3.028646614,3.69005505,0.095632593,-0.134509738,25.28014635,0,0
66610400,-117.7296117,33.66624833,98.1,16.5651111,0.302919328,10.54648972,-0.654364824,1.53228E+12,0,0,14,0.699999988,0,0,0,0,0.377655029,-0.250213593,-0.029983521,1.042577932,-0.18834881,-2472534.273,-4703601.58,98.1,2.717698692,-26.6424648,0.520335636,-15.54967223,-2.09386129,-2.952507798,1.521679797,26.80182614,0,137.5806254,-0.067061995,1,137.5806254,-2475721.677,-4703665.521,178.8507593,10.55083909,1.650109484,10.27837139,-0.940006808,10.40998462,0,0,3400,0,0,0,0,35,2.403021073,3.238359664,4.032552987,0.098404537,-0.137284269,26.80182614,0,0
66610500,-117.7296117,33.666235,98.1,16.92522221,-0.392514884,9.766094208,-4.414803028,1.53228E+12,0,0,14,0.699999988,0,0,0,0,-0.053970337,-0.021926882,-0.094894409,1.038952925,-0.193346799,-2472534.242,-4703603.138,98.1,2.748581632,-28.20093767,0.280864132,-15.84079872,-2.394715041,-2.911264871,1.558778831,28.36060498,0,128.0061872,-0.095744381,1,128.0061872,-2472613.84,-4703603.936,179.4257609,9.773978924,2.228342865,10.37929625,-1.130530178,10.61580438,0,0,3500,0,0,0,0,36,2.713284866,3.454967851,4.393030573,0.094779531,-0.142282258,28.36060498,0,0
66610600,-117.7296117,33.66622167,98.1,17.28533332,0.21233061,11.22513199,-3.829996586,1.53228E+12,0,0,14,0.699999988,0,0,0,0,-0.301803589,-0.191284195,0.023727417,1.046661276,-0.204914264,-2472534.242,-4703604.734,98.1,2.748581632,-29.79651704,-0.008985229,-16.12901394,-2.898493615,-2.882152229,1.595579368,29.95618434,0,112.1741432,-0.15832044,1,112.1741432,-2472616.693,-4703603.936,180.5543678,11.22713999,2.692532294,10.52321925,-1.478681304,10.86222231,0,0,3600,0,0,0,0,37,3.044081814,3.714124075,4.8022028,0.102487882,-0.153849723,29.95618434,0,0
66610700,-117.7296117,33.66620667,98.1,17.64544443,2.95293355,10.47849941,-1.211504698,1.53228E+12,0,0,14,0.699999988,0,0,0,0,0.273620635,-0.501342773,0.07951355,1.054549093,-0.220485015,-2472534.273,-4703606.329,98.1,2.717698692,-31.3920964,-0.375158561,-16.41674395,-3.66173332,-2.877300116,1.595878215,31.55206256,0,93.82721732,-0.183469259,1,93.82721732,-2472626.937,-4703603.738,181.6020287,10.88663247,2.938025944,10.69856797,-1.89338938,11.09465426,0,0,3700,0,0,0,0,38,3.310666886,3.941495402,5.147416947,0.110375699,-0.169420474,31.55206256,0,0
66610800,-117.7296133,33.66619167,98.1,18.00555554,4.391213894,11.47839832,-0.854759932,1.53228E+12,0,0,14,0.699999988,0,0,0,0,0.463699371,-0.558334351,-0.047149658,1.057281238,-0.221679786,-2472534.334,-4703607.999,98.1,2.655932813,-33.06188877,-0.771619183,-16.68688507,-3.964606214,-2.701411202,1.670934336,33.22299689,0,91.13242999,-0.026947873,1,91.13242999,-2472632.201,-4703603.543,182.6070363,12.28968623,2.904988759,10.81349613,-2.076985275,11.19690396,0,0,3800,0,0,0,0,39,3.538698741,4.024573387,5.359065191,0.113107843,-0.170615245,33.22299689,0,0
66610900,-117.7296133,33.66617667,98,18.36566665,3.837861776,10.73063564,-1.908914566,1.53228E+12,0,0,14,0.699999988,0,0,0,0,0.046127345,-0.566040039,-0.074325562,1.059950358,-0.223343374,-2472534.427,-4703609.706,98,2.563283994,-34.76878763,-1.214722231,-16.99729869,-4.431030483,-3.104136184,1.709411455,34.93240835,0,86.77581048,-0.043566195,1,86.77581048,-2472639.08,-4703603.17,183.5739426,11.3963031,2.560184237,10.80345727,-2.202235636,11.10266781,0,0,3900,0,0,0,0,40,3.656365727,3.856903851,5.314575961,0.115776964,-0.172278833,34.93240835,0,0
66611000,-117.729615,33.66616,98,18.82866665,3.424688816,11.21715927,-2.634797096,1.53228E+12,0,0,14,0.699999988,0,0,0,0,0.067153938,-0.184906006,0.019073486,1.062621793,-0.221201662,-2472534.55,-4703611.45,98,2.439752235,-36.51279298,-1.66711338,-17.3205704,-4.523911493,-3.232717045,1.748374895,36.68078324,0,90.74234819,0.039665377,1,90.74234819,-2472646.356,-4703602.654,184.498229,11.72830574,2.046213487,10.73778464,-1.990775841,10.93101133,0,0,4000,0,0,0,0,41,3.642506295,3.443532015,5.012560708,0.118448398,-0.170137121,36.68078324,0,0
66611100,-117.7296167,33.666145,98,19.03444443,3.360074997,11.04751968,-1.643453479,1.53228E+12,0,0,14,0.699999988,0,0,0,0,-0.096450798,-0.211364746,-0.058929443,1.06666375,-0.216941785,-2472534.705,-4703613.231,98,2.285337537,-38.29390483,-2.155849278,-17.6304988,-4.887358974,-3.099284057,1.787792866,38.46857611,0,88.74341185,-0.019989363,1,88.74341185,-2472571.771,-4703609.12,186.3283863,11.54719858,1.272788991,10.52223245,-1.470485582,10.59893238,0,0,4100,0,0,0,0,42,3.476024896,2.912101992,4.534654021,0.122490356,-0.165877245,38.46857611,0,0
66611200,-117.7296183,33.66612833,98,19.39455554,1.962118268,9.749156952,-2.855320215,1.53228E+12,0,0,14,0.699999988,0,0,0,0,-0.162094116,-0.00361634,-0.107330322,1.062098441,-0.210697893,-2472534.952,-4703615.049,98,2.038274019,-40.11212318,-2.622778326,-17.95510484,-4.669290486,-3.246060345,1.834927341,40.30350345,0,100.0200027,0.112765908,1,100.0200027,-2472644.238,-4703599.273,188.2141579,9.944645261,0.307287674,10.2810902,-0.636517828,10.28568138,0,0,4200,0,0,0,0,43,3.140551114,2.2365468,3.855541841,0.117925047,-0.159633352,40.30350345,0,0
66611300,-117.7296217,33.66611167,98,19.80611109,2.51197052,10.11108017,-0.754629493,1.53228E+12,0,0,14,0.699999988,0,0,0,0,-0.076446526,-0.216049194,-0.248184204,1.0590053,-0.207412552,-2472535.23,-4703616.868,98,1.760327562,-41.93034153,-3.031050991,-18.2901429,-4.082726644,-3.350380671,1.839340153,42.14284361,0,124.7569231,0.247369204,1,124.7569231,-2472597.714,-4703606.386,189.5230967,10.41844221,-0.779575082,10.03432533,0.279527782,10.06456269,0,0,4300,0,0,0,0,44,2.529896998,1.758764301,3.081173589,0.114831905,-0.156348011,42.14284361,0,0
66611400,-117.7296267,33.666095,97.9,19.96044443,-0.965786219,10.79031372,0.039318323,1.53228E+12,0,0,14,0.699999988,0,0,0,0,0.477493286,-0.263885468,-0.21786499,1.062917193,-0.197883686,-2472535.57,-4703618.723,97.9,1.420615225,-43.78566638,-3.347856041,-18.57835812,-3.1680505,-2.882152212,1.886169335,44.02901294,0,172.9332911,0.48176368,1,172.9332911,-2472602.616,-4703605.488,191.1666949,10.83344881,-2.125563169,9.594358213,1.274952321,9.826989789,0,0,4400,0,0,0,0,45,1.729190619,1.44377429,2.252683821,0.118743798,-0.146819145,44.02901294,0,0
66611500,-117.72963,33.66607833,97.9,20.01188887,-5.081594944,9.590981483,0.230725586,1.53228E+12,0,0,14,0.699999988,0,0,0,0,-0.001831055,0.013717651,-0.026657104,1.051511456,-0.184630546,-2472535.971,-4703620.615,97.9,1.01913701,-45.67809772,-3.572284857,-18.81550491,-2.244288164,-2.371467857,1.934549339,45.96356228,0,263.5382575,0.906049664,0,0,-2472657.571,-4703593.829,192.4227766,10.85401,-3.657186157,9.225236857,2.10766507,9.923709269,0,0,4500,0,0,0,0,46,0.73416425,1.515920961,1.684343642,0.107338061,-0.133566005,45.96356228,0,0
66611600,-117.729635,33.66606167,97.9,19.90899998,-7.566853046,9.339427948,3.520840645,1.53228E+12,0,0,14,0.699999988,0,0,0,0,-0.010803232,0.221191406,0.149169922,1.039078265,-0.169049902,-2472536.403,-4703622.508,97.9,0.586775854,-47.57052907,-3.61822058,-19.05034694,-0.459357224,-2.348420334,1.941193592,47.90475587,0,36415.85463,361.5231637,0,0,-2472438.254,-4703643.936,192.3158356,12.02007402,-5.537038884,8.826591425,2.786868501,10.41957369,0,0,4600,0,0,0,0,47,-0.44238967,1.37129127,1.440884579,0.094904871,-0.117985362,47.90475587,0,0
66611700,-117.72964,33.66604333,97.9,19.80611109,-8.493254662,7.662659645,5.468021393,1.53228E+12,0,0,14,0.699999988,0,0,0,0,-0.123382598,0.703536987,-0.014877319,1.005638388,-0.146094273,-2472536.805,-4703624.437,97.9,0.185297638,-49.50006691,-3.502422175,-19.25789587,1.157984042,-2.075489251,1.970863018,49.87561889,0,-321.74672,-367.3760135,0,0,-2472019.505,-4703731.065,191.6469089,11.439044,-7.489119755,8.440614809,3.284738134,11.28409912,0,0,4700,0,0,0,0,48,-1.70817514,1.361537175,2.184409711,0.061464993,-0.095029732,49.87561889,0,0
66611800,-117.729645,33.66602667,97.9,19.80611109,-9.154457092,7.090398312,6.107581615,1.53228E+12,0,0,14,0.699999988,0,0,0,0,-0.007247947,0.510971069,0.149749756,0.999235124,-0.140297301,-2472537.206,-4703626.404,97.9,-0.216180578,-51.46671124,-3.192886075,-19.43390609,3.095361,-1.760102229,2.007205697,51.88282458,0,-147.4074968,1.743392231,0,0,-2472472.349,-4703638.62,190.6667334,11.57919828,-8.876907401,8.22272861,3.771805416,12.10011367,0,0,4800,0,0,0,0,49,-2.934595936,1.368432311,3.237971634,0.05506173,-0.08923276,51.88282458,0,0
66611900,-117.7296483,33.66600833,97.8,19.90899998,-9.855863571,7.683835983,7.401391029,1.53228E+12,0,0,14,0.699999988,0,0,0,0,-0.08901979,0.408782959,0.186843872,0.981247843,-0.124521015,-2472537.546,-4703628.371,97.8,-0.555892915,-53.43335558,-2.714346899,-19.5868688,4.785391767,-1.529627079,1.99576913,53.87859371,0,-100.2924721,0.471150247,2,-100.2924721,-2472473.368,-4703638.444,188.9202599,12.49717497,-9.562009136,8.131667407,4.147886723,12.55213263,0,0,4900,0,0,0,0,50,-4.101205799,1.44007446,4.346688793,0.037074448,-0.073456474,53.87859371,0,0
66612000,-117.7296517,33.66599,97.8,20.21766665,-11.04051208,7.93721962,5.152668476,1.53228E+12,0,0,14,0.699999988,0,0,0,0,-0.102859519,0.474151611,0.146362305,0.969125926,-0.115915374,-2472537.824,-4703630.337,97.8,-0.833839371,-55.39999992,-2.075285087,-19.75875473,6.390618117,-1.718859319,1.986188354,55.86478207,0,-76.71425057,0.235782215,2,-76.71425057,-2472506.536,-4703633.756,186.2362108,13.5975131,-9.774331453,8.138358817,4.290877072,12.71890088,0,0,5000,0,0,0,0,51,-5.074463129,1.578145362,5.314199736,0.024952531,-0.064850833,55.86478207,0,0
66612100,-117.7296533,33.66597333,97.8,20.47488887,-10.38552856,7.850518227,4.012990952,1.53228E+12,0,0,14,0.699999988,0,0,0,0,-0.150192291,0.578063965,0.107330322,0.960245381,-0.115078339,-2472537.978,-4703632.341,97.8,-0.98825407,-57.40375075,-1.294781633,-19.92578855,7.805034544,-1.670338211,2.009691845,57.87447391,0,-64.15488173,0.125593688,2,-64.15488173,-2472494.493,-4703634.684,183.0844864,13.01882637,-9.441158597,8.296286135,4.148659081,12.56836661,0,0,5100,0,0,0,0,52,-5.786366199,1.963432129,6.110409112,0.016071986,-0.064013798,57.87447391,0,0
66612200,-117.729655,33.665955,97.8,20.83499998,-10.35122013,7.876561642,2.112457037,1.53228E+12,0,0,14,0.699999988,0,0,0,0,-0.003845239,0.558380127,-0.026870728,0.952122797,-0.123917632,-2472538.04,-4703634.345,97.8,-1.050019949,-59.40750159,-0.401508503,-20.09767448,8.932731296,-1.718859314,2.004702578,59.87917649,0,-57.30065413,0.068542276,2,-57.30065413,-2472505.507,-4703634.345,180,13.00722805,-8.591969413,8.564320315,3.806671175,12.13134456,0,0,5200,0,0,0,0,53,-6.156250019,2.033392538,6.483370999,0.007949403,-0.072853092,59.87917649,0,0
66612300,-117.7296533,33.66593667,97.8,21.14366665,-9.971390724,8.191563606,2.898214579,1.53228E+12,0,0,14,0.699999988,0,0,0,0,-0.046295192,0.613296509,-0.039474487,0.947415907,-0.128900414,-2472537.978,-4703636.348,97.8,-0.98825407,-61.41125242,0.477024812,-20.26337398,8.785333148,-1.656994926,2.004702578,61.88387907,0,-59.77304411,-0.0247239,2,-59.77304411,-2472492.723,-4703633.951,176.9670536,12.90466378,-7.356205786,8.763337934,3.110886473,11.44158448,0,0,5300,0,0,0,0,54,-6.176103233,2.353932292,6.609481703,0.003242512,-0.077835873,61.88387907,0,0
66612400,-117.7296517,33.66591833,97.7,21.50377776,-8.554098129,9.051375389,1.798455119,1.53228E+12,0,0,14,0.699999988,0,0,0,0,-0.16198732,0.315689087,0.112304688,0.945218061,-0.142541208,-2472537.824,-4703638.389,97.7,-0.833839371,-63.45210975,1.347683432,-20.45212098,8.706586202,-1.887470068,2.046690633,63.9305697,0,-62.46464691,-0.026916028,2,-62.46464691,-2472501.956,-4703634.649,174.0470513,12.4539147,-5.488287306,9.017526053,2.318984227,10.55637597,0,0,5400,0,0,0,0,55,-5.808211199,2.851559331,6.470448822,0.001044667,-0.091476668,63.9305697,0,0
66612500,-117.7296483,33.6659,97.7,21.76099998,-6.7211833,9.678434372,2.650105953,1.53228E+12,0,0,14,0.699999988,0,0,0,0,0.327453613,0.038055435,0.08744812,0.951111858,-0.159302907,-2472537.546,-4703640.467,97.7,-0.555892914,-65.53007358,2.14635926,-20.65966991,7.986758284,-2.07548925,2.096470344,66.02704005,0,-71.14630823,-0.086816613,2,-71.14630823,-2472466.078,-4703629.85,171.5501134,11.7833101,-3.447852705,9.488051872,1.408194731,10.09508874,0,0,5500,0,0,0,0,56,-5.117345261,3.17933057,6.024563503,0.006938464,-0.108238366,66.02704005,0,0
66612600,-117.729645,33.66588167,97.7,22.12111109,-1.117745519,9.754880905,-0.692520022,1.53228E+12,0,0,14,0.699999988,0,0,0,0,-0.111160263,-0.276260376,0.120910645,0.947761314,-0.176020666,-2472537.206,-4703642.545,97.7,-0.216180578,-67.60803741,2.765835292,-20.89451194,6.194760312,-2.348420327,2.105549368,68.13258942,0,-97.18955331,-0.260432451,2,-97.18955331,-2472455.094,-4703628.055,169.9917928,9.818709514,-1.40311664,9.897396486,0.246467774,9.996359013,0,0,5600,0,0,0,0,57,-4.083540908,3.300247718,5.250422968,0.003587919,-0.124956125,68.13258942,0,0
66612700,-117.72964,33.66586167,97.7,22.37833331,4.703125,12.2594738,-1.103227615,1.53228E+12,0,0,14,0.699999988,0,0,0,0,0.616271973,-0.681289673,-0.020355225,0.981431119,-0.207633553,-2472536.805,-4703644.66,97.7,0.185297638,-69.72310773,3.182487439,-21.15240149,4.166521476,-2.578895483,2.152837021,70.28542644,0,-156.4581236,-0.592685703,2,-156.4581236,7211719923,1364679247,169.2521031,13.13065431,0.576813288,10.27239397,-0.710538689,10.28857577,0,0,5700,0,0,0,0,58,-2.846974348,3.34800915,4.394818336,0.037257725,-0.156569012,70.28542644,0,0
66612800,-117.729635,33.66584333,97.6,22.68699998,6.26751852,10.79703808,-1.334671021,1.53228E+12,0,0,14,0.699999988,0,0,0,0,0.449310333,-0.602828979,-0.253128052,0.983632224,-0.211241706,-2472536.403,-4703646.775,97.6,0.586775854,-71.83817806,3.412166053,-21.42909295,2.296786135,-2.766914648,2.15283702,72.43826346,0,-328.5541708,-1.720960472,0,0,-2472882.521,-4703711.379,169.4272671,12.48430293,2.286772584,10.52809137,-1.52086273,10.7735805,0,0,5800,0,0,0,0,59,-1.444411811,3.173276304,3.486546713,0.039458829,-0.160177165,72.43826346,0,0
66612900,-117.72963,33.66582333,97.6,22.99566665,5.703809738,11.51668453,-1.951545715,1.53228E+12,0,0,14,0.699999988,0,0,0,0,-0.051132187,-0.307830811,0.072357178,0.989724611,-0.208284333,-2472536.002,-4703648.965,97.6,0.98825407,-74.02746138,3.376830881,-21.75382029,-0.353351717,-3.247273376,2.225791143,74.6640546,0,732.4923924,10.61046563,0,0,-2472696.033,-4703677.18,170.000767,12.85174961,3.661344094,10.7531967,-2.038255519,11.35943131,0,0,5900,0,0,0,0,60,-0.004159301,3.108024769,3.108027552,0.045551216,-0.157219792,74.6640546,0,0
66613000,-117.7296267,33.665805,97.6,23.30433331,6.498565674,10.98923874,-2.756928444,1.53228E+12,0,0,14,0.699999988,0,0,0,0,-0.162628159,-0.44758606,-0.024963379,0.992469824,-0.212542146,-2472535.631,-4703651.154,97.6,1.358849346,-76.2167447,3.127162657,-22.06932862,-2.496682242,-3.155083312,2.220428406,76.88448301,0,218.5124071,-5.139799853,0,0,-2472609.595,-4703662.548,171.2422489,12.7669387,4.538410744,10.89507271,-2.226995048,11.80253284,0,0,6000,0,0,0,0,61,1.419157194,2.910588425,3.238137138,0.04829643,-0.161477606,76.88448301,0,0
66613100,-117.7296233,33.66578333,97.5,23.45866665,6.211405277,10.69907188,-3.192376137,1.53228E+12,0,0,14,0.699999988,0,0,0,0,0.064514183,-0.50100708,0.045532227,1.000307501,-0.214394568,-2472535.323,-4703653.38,97.5,1.667678743,-78.44313451,2.698597508,-22.37137235,-4.285651484,-3.020437308,2.247707101,79.13219011,0,141.1138307,-0.773985764,3,141.1138307,-2472588.017,-4703659.555,173.316504,12.37140633,5.060765805,10.95793619,-2.405738517,12.07011665,0,0,6100,0,0,0,0,62,2.695582009,2.870394825,3.93768064,0.056134106,-0.163330027,79.13219011,0,0
66613200,-117.72962,33.66576333,97.5,23.8702222,6.421180248,10.23645496,-3.065049648,1.53228E+12,0,0,14,0.699999988,0,0,0,0,0.158737198,-0.405441284,-0.128997803,0.999681134,-0.211038041,-2472535.106,-4703655.644,97.5,1.883859321,-80.70663083,2.140200845,-22.68797241,-5.583966639,-3.166000565,2.273796297,81.4059864,0,113.869977,-0.272438537,3,113.869977,-2472613.74,-4703662.012,175.3701001,12.08373146,5.219647315,10.97837116,-2.3621631,12.15604177,0,0,6200,0,0,0,0,63,3.755896524,2.75250481,4.656505281,0.055507739,-0.1599735,81.4059864,0,0
66613300,-117.7296183,33.66574333,97.5,24.17888887,6.704586506,10.81556129,-2.968375206,1.53228E+12,0,0,14,0.699999988,0,0,0,0,0.085281387,-0.354827881,-0.212356567,1.008550759,-0.203829431,-2472534.952,-4703657.982,97.5,2.038274019,-83.04434013,1.470548871,-23.01367017,-6.696519739,-3.25697758,2.342803599,83.74879,0,99.20076828,-0.146692087,3,99.20076828,-2472594.086,-4703660.714,177.3547317,12.72508728,5.050945222,10.89435738,-2.481179033,12.00829173,0,0,6300,0,0,0,0,64,4.515317228,2.809515816,5.318032417,0.064377364,-0.15276489,83.74879,0,0
66613400,-117.7296183,33.66572167,97.5,24.38466665,4.776953697,11.34884739,-2.812868118,1.53228E+12,0,0,14,0.699999988,0,0,0,0,-0.07649231,-0.083847046,0.058303833,1.015236545,-0.1815831,-2472534.89,-4703660.319,97.5,2.100039899,-85.38204944,0.79090209,-23.30952746,-6.796467801,-2.958572926,2.338525138,86.08731514,0,101.5285455,0.023277772,3,101.5285455,-2472579.862,-4703660.338,179.9763625,12.31322962,4.447635221,10.73469286,-2.213564561,11.61959939,0,0,6400,0,0,0,0,65,5.029588214,2.718701825,5.717350541,0.07106315,-0.130518559,86.08731514,0,0
66613500,-117.7296183,33.6657,97.5,24.59044442,3.592584133,9.988487244,-2.853415728,1.53228E+12,0,0,14,0.699999988,0,0,0,0,-0.286499023,-0.00947572,-0.069656372,1.013253236,-0.161466393,-2472534.952,-4703662.694,97.5,2.038274019,-87.75686524,0.073194283,-23.60235219,-7.177078073,-2.928247258,2.375618893,88.46293403,0,99.82897373,-0.016995717,3,99.82897373,-2472630.053,-4703659.032,182.2049683,10.61492054,3.531902094,10.61640363,-1.8386114,11.18849223,0,0,6500,0,0,0,0,66,5.22924055,2.752000288,5.909184573,0.069079842,-0.110401853,88.46293403,0,0
66613600,-117.72962,33.66567833,97.5,24.95055553,1.258269072,10.18921566,-0.872473478,1.53228E+12,0,0,14,0.699999988,0,0,0,0,-0.057693481,0.03059387,-0.05241394,1.011402828,-0.141640427,-2472535.075,-4703665.106,97.5,1.91474226,-90.16878754,-0.572227859,-23.91895224,-6.454221422,-3.16600056,2.415083701,90.87801773,0,115.7308674,0.159018937,3,115.7308674,-2472629.661,-4703659.052,183.6619652,10.2666137,2.443170579,10.51902539,-1.312815484,10.79902669,0,0,6600,0,0,0,0,67,5.157139822,2.67127674,5.807909311,0.067229433,-0.090575886,90.87801773,0,0
66613700,-117.7296233,33.66565667,97.4,25.15633331,-1.539376497,10.79149818,-0.642909288,1.53228E+12,0,0,14,0.699999988,0,0,0,0,-0.242492676,0.02682494,0.136978149,1.013842869,-0.128810635,-2472535.261,-4703667.518,97.4,1.729444623,-92.58070984,-1.174944923,-24.1996467,-6.02717064,-2.806944549,2.419029639,93.29704737,0,128.7409753,0.130101079,3,128.7409753,-2472637.107,-4703658.48,185.0709536,10.90073911,1.63775638,10.45746645,-1.016680032,10.58493508,0,0,6700,0,0,0,0,68,4.908965308,2.817083649,5.659849881,0.069669474,-0.077746094,93.29704737,0,0
66613800,-117.729625,33.665635,97.4,25.51644442,-1.747180343,10.74359131,0.862049162,1.53228E+12,0,0,14,0.699999988,0,0,0,0,0.264175415,0.044799816,0.089477539,1.016187593,-0.12763573,-2472535.508,-4703669.967,97.4,1.482381105,-95.02973864,-1.681853195,-24.49198621,-5.069082716,-2.92339516,2.461459413,95.75850679,0,160.3008773,0.31559902,3,160.3008773,-21498056323,2163819032,185.7606371,10.88473212,1.201989254,10.48873954,-0.751001461,10.55738771,0,0,6800,0,0,0,0,69,4.542814282,3.048827501,5.471061207,0.072014198,-0.07657119,95.75850679,0,0
66613900,-117.7296283,33.66561333,97.4,25.67077776,-1.447652459,9.652327538,0.029322803,1.53228E+12,0,0,14,0.699999988,0,0,0,0,-0.138244629,0.132415771,0.031738281,1.013611313,-0.128481373,-2472535.755,-4703672.416,97.4,1.235317587,-97.47876744,-2.136667328,-24.73628986,-4.548141333,-2.443036437,2.46145941,98.2199662,0,184.4617477,0.241608705,3,184.4617477,-2470880.504,-4703838.164,185.7182479,9.760283015,1.026396866,10.51442721,-0.718663349,10.56440581,0,0,6900,0,0,0,0,70,4.081286091,3.207247464,5.190696721,0.069437918,-0.077416832,98.2199662,0,0
66614000,-117.7296317,33.66559,97.4,25.97944442,1.014307857,10.21288109,-0.149606466,1.53228E+12,0,0,14,0.699999988,0,0,0,0,0.36807254,-0.560501099,-0.069564819,1.01714465,-0.134621462,-2472536.002,-4703674.902,97.4,0.98825407,-99.96490273,-2.502436829,-25.0343306,-3.657695013,-2.98040742,2.498381293,100.7183475,0,245.0724947,0.60610747,3,245.0724947,-2472770.951,-4703650.298,185.9782011,10.26312626,0.952721102,10.62938319,-0.906803369,10.6719944,0,0,7000,0,0,0,0,71,3.644766828,3.296716063,4.91453579,0.072971256,-0.083556921,100.7183475,0,0
66614100,-117.7296333,33.66556833,97.3,26.23666664,0.587244868,10.70983601,0.780270934,1.53228E+12,0,0,14,0.699999988,0,0,0,0,0.380111724,-0.405456513,-0.096130371,1.020462469,-0.132008939,-2472536.28,-4703677.425,97.3,0.710307613,-102.4881445,-2.830448176,-25.29537402,-3.280113472,-2.610434169,2.53850416,103.2568516,0,282.660096,0.375876013,3,282.660096,-2470925.078,-4703853.63,186.2411769,10.72592391,1.09377072,10.71071728,-1.105242331,10.76641997,0,0,7100,0,0,0,0,72,3.24095746,3.007120334,4.421151203,0.076289074,-0.080944398,103.2568516,0,0
66614200,-117.7296367,33.665545,97.3,26.54533331,1.61652112,10.30202675,-0.85215497,1.53228E+12,0,0,14,0.699999988,0,0,0,0,0.211547866,-0.328109741,0.056549072,1.02357505,-0.131769688,-2472536.558,-4703679.986,97.3,0.432361156,-105.0484928,-3.127869361,-25.57861583,-2.974211842,-2.832418129,2.575390764,105.8322424,0,330.1494622,0.474893662,3,330.1494622,-7124212960,768418683.6,186.1956567,10.42808207,1.268736307,10.74786854,-1.085841075,10.82249371,0,0,7200,0,0,0,0,73,2.893740322,2.501420942,3.825028075,0.079401655,-0.080705147,105.8322424,0,0
66614300,-117.72964,33.66552167,97.3,26.69966664,1.334295034,10.73865509,1.75532937,1.53228E+12,0,0,14,0.699999988,0,0,0,0,0.273452789,-0.355987549,-0.033706665,1.027186892,-0.135464595,-2472536.836,-4703682.546,97.3,0.154414698,-107.6088411,-3.431751834,-25.81770346,-3.03882473,-2.390876279,2.575390765,108.4076332,0,326.4149005,-0.037345617,3,326.4149005,-2472654.531,-4703668.474,186.818103,10.82123174,1.588091433,10.67596325,-0.847141651,10.79343438,0,0,7300,0,0,0,0,74,2.606397263,1.902721294,3.227019525,0.083013497,-0.084400054,108.4076332,0,0
66614400,-117.7296433,33.66549833,97.2,27.00833331,2.688704252,11.24323082,-0.67140758,1.53228E+12,0,0,14,0.699999988,0,0,0,0,0.106536873,-0.213867188,0.01499939,1.030657373,-0.132416902,-2472537.176,-4703685.144,97.2,-0.185297638,-110.2062959,-3.710192983,-26.11016427,-2.784411493,-2.924608182,2.619575506,111.0272087,0,385.3006815,0.58885781,3,385.3006815,-2471093.076,-4703872.691,187.3996947,11.56024956,2.00004366,10.5159165,-0.436989162,10.70442313,0,0,7400,0,0,0,0,75,2.396122237,1.118525661,2.644333835,0.086483979,-0.081352361,111.0272087,0,0
66614500,-117.7296467,33.665475,97.2,27.21411109,3.856392384,10.85847282,-1.944085717,1.53228E+12,0,0,14,0.699999988,0,0,0,0,-0.049056999,-0.15411377,-0.034729004,1.034670941,-0.125471618,-2472537.515,-4703687.778,97.2,-0.525009974,-112.8408572,-4.013974499,-26.32996477,-3.037815156,-2.198004981,2.65637302,113.6835817,0,345.2227816,-0.400778999,3,345.2227816,-2472652.129,-4703671.66,188.0049472,11.52294208,2.228746846,10.35380016,0.282852933,10.59096266,0,0,7500,0,0,0,0,76,2.20851088,-0.012781228,2.208547864,0.090497546,-0.074407077,113.6835817,0,0
66614600,-117.7296517,33.66545167,97.2,27.47133331,4.062264919,10.65014839,-2.083256483,1.53228E+12,0,0,14,0.699999988,0,0,0,0,-0.158416748,-0.091430672,-0.088577271,1.037508234,-0.117803325,-2472537.917,-4703690.413,97.2,-0.92648819,-115.4754184,-4.33754371,-26.49420863,-3.235692112,-1.642438591,2.664976155,116.3485579,0,320.2995636,-0.249232179,3,320.2995636,-2472825.825,-4703645.191,188.9265511,11.39858136,2.325373703,9.993651798,1.160364287,10.26062567,0,0,7600,0,0,0,0,77,2.073023051,-1.095317641,2.344599178,0.093334839,-0.066738784,116.3485579,0,0
66614700,-117.729655,33.66542667,97.2,27.47133331,2.812188864,9.486715317,-1.471064806,1.53228E+12,0,0,14,0.699999988,0,0,0,0,-0.032089237,0.094329834,-0.193206787,1.022905816,-0.107158031,-2472538.349,-4703693.084,97.2,-1.358849347,-118.1470862,-4.653541098,-26.60168283,-3.159973884,-1.07474196,2.706426591,119.0549845,0,324.2853627,0.03985799,3,324.2853627,-2472657.401,-4703672.447,189.8342894,9.894754858,2.233876881,9.623727168,2.298410877,9.879591617,0,0,7700,0,0,0,0,78,1.900311112,-2.03389706,2.783508501,0.078732421,-0.05609349,119.0549845,0,0
66614800,-117.7296617,33.66540333,97.1,27.05977775,2.812009573,10.57073593,-1.321238279,1.53228E+12,0,0,14,0.699999988,0,0,0,0,0.136627197,0.05477906,-0.187408447,1.02842793,-0.103557934,-2472538.843,-4703695.756,97.1,-1.852976382,-120.818754,-4.946318231,-26.6408636,-2.92777133,-0.391807722,2.716978145,121.7719626,0,340.5629102,0.162775475,3,340.5629102,-2472853.114,-4703636.25,190.7218392,10.93836624,1.652558395,9.261193963,3.479100759,9.407479092,0,0,7800,0,0,0,0,79,1.699104687,-2.888557623,3.351226922,0.084254535,-0.052493393,121.7719626,0,0
66614900,-117.7296667,33.66537833,97.1,26.49388887,1.584765673,9.314702988,2.599847794,1.53228E+12,0,0,14,0.699999988,0,0,0,0,-0.052474968,-0.138946533,0.14491272,1.018278966,-0.087699311,-2472539.368,-4703698.465,97.1,-2.377986356,-123.5275283,-5.205274558,-26.58191049,-2.589563266,0.589531124,2.759183494,124.5311461,0,359.8634004,0.193004902,3,359.8634004,-2472648.065,-4703675.992,191.6811323,9.448554069,0.817279133,8.936835546,4.677284839,8.974128078,0,0,7900,0,0,0,0,80,1.39727311,-3.513156076,3.78082501,0.074105572,-0.03663477,124.5311461,0,0
66615000,-117.7296733,33.665355,97.1,25.67077776,0.234618694,8.301250458,7.704222679,1.53228E+12,0,0,14,0.699999988,0,0,0,0,0.20835875,0.248748794,-0.107086182,1.001499671,-0.064837611,-2472539.955,-4703701.136,97.1,-2.96476221,-126.1991961,-5.369128795,-26.42967559,-1.638542374,1.522348941,2.735345431,127.2664915,0,495.9668624,1.361034621,0,0,28651921498,-6298041020,192.3871442,8.304565316,-0.249591114,8.477247755,5.730538387,8.480921248,0,0,8000,0,0,0,0,81,1.015355966,-4.189888486,4.311161475,0.057326276,-0.01377307,127.2664915,0,0
66615100,-117.72968,33.66533,97,25.05344442,-1.796280742,7.480946541,10.93528461,1.53228E+12,0,0,14,0.699999988,0,0,0,0,-0.094787605,0.227279663,0.061981201,0.986328261,-0.051964903,-2472540.542,-4703703.808,97,-3.551538064,-128.8708638,-5.431419654,-26.21096682,-0.62290859,2.18708773,2.73534543,130.001837,0,884.5148083,3.885479459,0,0,-2472981.215,-4703605.623,192.5607116,7.693580808,-1.337329389,8.029470973,6.673180016,8.140077027,0,0,8100,0,0,0,0,82,0.48155119,-4.607969194,4.633062879,0.042154867,-0.000900362,130.001837,0,0
66615200,-117.7296867,33.66530667,97,24.28177776,-2.612908363,6.610139847,11.3710165,1.53228E+12,0,0,14,0.699999988,0,0,0,0,0.108627312,0.21055603,0.042938232,0.962735333,-0.032024138,-2472541.129,-4703706.406,97,-4.138313918,-131.4683186,-5.355196642,-25.91353259,0.762230126,2.974342287,2.662907671,132.6647446,0,-6296.899087,-71.81413896,0,0,-2472312.088,-4703756.782,192.4043848,7.107829409,-2.591623073,7.668460185,7.703022712,8.094553216,0,0,8200,0,0,0,0,83,-0.174045915,-4.942467396,4.945530906,0.018561938,0.019040403,132.6647446,0,0
66615300,-117.7296933,33.66528333,97,23.66444442,-4.765437126,6.147752285,11.83751869,1.53228E+12,0,0,14,0.699999988,0,0,0,0,-0.472473174,0.623336792,0.081100464,0.939956952,-0.010815391,-2472541.684,-4703709.003,97,-4.694206832,-134.0657734,-5.151666055,-25.58055667,2.035305867,3.329759205,2.656273385,135.321018,0,-660.6894236,56.36209664,0,0,-2471606.001,-4703907.895,192.0003475,7.778447735,-3.871469103,7.316280152,8.46071645,8.277453007,0,0,8300,0,0,0,0,84,-0.957101988,-5.044044527,5.134046105,-0.004216443,0.04024915,135.321018,0,0
66615400,-117.7296983,33.66526167,96.9,23.09855554,-6.411344051,6.663714886,12.60357952,1.53228E+12,0,0,14,0.699999988,0,0,0,0,-0.142150909,0.579330444,0.074752808,0.92528612,0.00574678,-2472542.209,-4703711.489,96.9,-5.219216807,-136.5519087,-4.797607639,-25.16994702,3.540584156,4.106096506,2.540965205,137.8619832,0,-314.1380215,3.465514021,0,0,-2472468.254,-4703725.808,190.957871,9.247184903,-5.27262838,7.000463249,9.471565542,8.763965754,0,0,8400,0,0,0,0,85,-1.857327218,-5.081715516,5.410498774,-0.018887275,0.056811321,137.8619832,0,0
66615500,-117.7297033,33.66523833,96.9,22.89277776,-6.760974407,6.481200695,10.61080933,1.53228E+12,0,0,14,0.699999988,0,0,0,0,-0.013259907,0.447341919,-0.058410645,0.912137472,0.014024462,-2472542.642,-4703713.938,96.9,-5.651577962,-139.0009375,-4.312304301,-24.74805622,4.853033384,4.218908017,2.486901328,140.3488845,0,-201.3236065,1.128144151,0,0,-2472433.562,-4703731.933,189.3676108,9.365721402,-6.583758469,6.790972356,10.10727587,9.458497826,0,0,8500,0,0,0,0,86,-2.87484185,-4.821718422,5.613705034,-0.032035922,0.065089003,140.3488845,0,0
66615600,-117.7297083,33.66521833,96.9,22.68699998,-7.549961567,7.247869015,9.107920647,1.53228E+12,0,0,14,0.699999988,0,0,0,0,-0.162689239,0.531036377,0.06048584,0.904389654,0.013216749,-2472543.012,-4703716.35,96.9,-6.022173238,-141.4128598,-3.674958769,-24.32944059,6.373455322,4.186156284,2.440227459,142.789112,0,-137.7986996,0.635249069,4,-137.7986996,-2472476.42,-4703725.348,187.6948816,10.46582653,-7.77812326,6.603342197,10.28692654,10.20310392,0,0,8600,0,0,0,0,87,-3.926844952,-4.330986521,5.846157329,-0.039783741,0.06428129,142.789112,0,0
66615700,-117.72971,33.66519667,96.8,22.58411109,-9.752475739,6.962225437,7.380412102,1.53228E+12,0,0,14,0.699999988,0,0,0,0,-0.021713272,0.336120605,0.071395874,0.8848339,-0.0117004,-2472543.29,-4703718.725,96.8,-6.300119696,-143.7876756,-2.931203892,-23.91834573,7.437548765,4.110948624,2.391025791,145.1801378,0,-108.8334878,0.289652117,4,-108.8334878,-2472478.587,-4703725.094,185.6218763,11.98262768,-9.138306829,6.456514864,10.20581341,11.1890677,0,0,8700,0,0,0,0,88,-4.995363846,-3.405020156,6.045479486,-0.059339495,0.039364141,145.1801378,0,0
66615800,-117.7297133,33.665175,96.8,22.37833331,-9.447649002,7.154165268,6.396955013,1.53228E+12,0,0,14,0.699999988,0,0,0,0,-0.0551758,0.388534546,0.084121704,0.880662486,-0.014536135,-2472543.476,-4703721.026,96.8,-6.485417334,-146.0882784,-2.053074408,-23.50070052,8.781294844,4.176452067,2.308052968,147.4881908,0,-85.46833668,0.233651511,4,-85.46833668,-2472486.117,-4703724.488,183.4540982,11.8507448,-10.19953664,6.43475908,9.758276746,12.05971277,0,0,8800,0,0,0,0,89,-6.028715923,-2.280776577,6.445723968,-0.063510909,0.036528405,147.4881908,0,0
66615900,-117.7297133,33.665155,96.7,22.17255554,-10.25022221,6.446386337,7.04731369,1.53228E+12,0,0,14,0.699999988,0,0,0,0,-0.020797752,0.513687134,0.087982178,0.865125446,-0.017235597,-2472543.568,-4703723.326,96.7,-6.578066153,-148.3888812,-1.089635724,-23.09712643,9.634386835,4.03574095,2.302467609,149.7906584,0,-72.86712147,0.126012152,4,-72.86712147,-2472486.855,-4703724.458,181.1432286,12.10879648,-11.24525542,6.581783842,8.813326483,13.02979846,0,0,8900,0,0,0,0,90,-6.955815304,-1.342701681,7.084222918,-0.079047949,0.033828944,149.7906584,0,0
66616000,-117.7297133,33.665135,96.7,22.0182222,-10.75726795,6.943881512,7.791893959,1.53228E+12,0,0,14,0.699999988,0,0,0,0,0.016952492,0.510513306,0.18901062,0.848778225,-0.01552018,-2472543.568,-4703725.59,96.7,-6.578066153,-150.6523775,-0.01534556,-22.72945793,10.74290164,3.676684945,2.263496314,152.0541547,0,-61.75673811,0.111103834,4,-61.75673811,-2472503.046,-4703724.458,178.4001873,12.80376133,-11.95220516,6.701667123,7.801245488,13.70283002,0,0,9000,0,0,0,0,91,-7.730424873,-0.586927463,7.752673898,-0.095395169,0.035544361,152.0541547,0,0
66616100,-117.7297133,33.665115,96.7,21.86388887,-11.12667274,7.270872593,8.469727516,1.53228E+12,0,0,14,0.699999988,0,0,0,0,0.056228615,0.526473999,0.198516846,0.839637346,-0.008141321,-2472543.445,-4703727.816,96.7,-6.454534394,-152.8787674,1.109726293,-22.34577748,11.25071853,3.836804489,2.229814276,154.283969,0,-56.1694482,0.055872899,4,-56.1694482,-2472462.792,-4703722.224,176.0340307,13.29166786,-12.04231938,6.892909675,6.868904322,13.87550575,0,0,9100,0,0,0,0,92,-8.332308889,-0.045070648,8.332430785,-0.104536049,0.04292322,154.283969,0,0
66616200,-117.72971,33.665095,96.7,21.81244443,-11.55797577,6.871382713,7.200849533,1.53228E+12,0,0,14,0.699999988,0,0,0,0,0.090728737,0.550109863,0.080596924,0.83174536,-0.004648816,-2472543.259,-4703730.042,96.7,-6.269236756,-155.1051572,2.285882708,-22.00018608,11.76156415,3.455914017,2.234087471,156.5180564,0,-51.98796554,0.041814827,4,-51.98796554,-2472504.576,-4703725.702,173.5979653,13.44628961,-11.60817609,7.220329718,5.938875655,13.67051255,0,0,9200,0,0,0,0,93,-8.698095766,0.422453234,8.708348678,-0.112428035,0.046415724,156.5180564,0,0
66616300,-117.7297067,33.665075,96.7,21.81244443,-11.97790432,6.69006443,7.641066074,1.53228E+12,0,0,14,0.699999988,0,0,0,0,-0.050689723,0.559707642,0.217407227,0.817148434,-0.005825687,-2472542.951,-4703732.232,96.7,-5.96040736,-157.2944405,3.486571827,-21.65786985,12.00689119,3.423162286,2.2109584,158.7290148,0,-49.69051918,0.022974464,4,-49.69051918,-2472503.009,-4703725.481,170.4068027,13.71959015,-10.73629686,7.570387939,5.163073287,13.13692673,0,0,9300,0,0,0,0,94,-8.833398442,0.59096364,8.853144417,-0.127024961,0.045238854,158.7290148,0,0
66616400,-117.7297033,33.665055,96.7,21.91533331,-11.63243103,7.228655338,4.298798084,1.53228E+12,0,0,14,0.699999988,0,0,0,0,-0.147460952,0.483032227,0.241699219,0.808942325,-0.012533036,-2472542.518,-4703734.421,96.7,-5.528046204,-159.4837238,4.660406217,-21.40956322,11.7383439,2.483066334,2.231568421,160.9605832,0,-51.223534,-0.015330148,4,-51.223534,-2472493.492,-4703723.601,167.5549706,13.69550692,-9.513264609,7.787845274,4.444193675,12.29441896,0,0,9400,0,0,0,0,95,-8.689505418,0.5490883,8.70683653,-0.13523107,0.038531505,160.9605832,0,0
66616500,-117.7296967,33.66503667,96.6,22.17255554,-11.62892818,7.429439545,3.470680237,1.53228E+12,0,0,14,0.699999988,0,0,0,0,0.044754002,0.554168701,0.045516968,0.80908028,-0.018793223,-2472541.993,-4703736.573,96.6,-5.003036229,-161.6359006,5.742772991,-21.14985413,10.82366774,2.597090878,2.215287915,163.1758712,0,-55.26244903,-0.04038915,4,-55.26244903,-2472505.348,-4703726.494,164.620738,13.79958487,-7.899114433,8.095616678,3.731491767,11.31083632,0,0,9500,0,0,0,0,96,-8.2503538,0.361574225,8.258273048,-0.135093115,0.032271318,163.1758712,0,0
66616600,-117.72969,33.66501667,96.6,22.4812222,-10.73398495,8.361942291,3.712016106,1.53228E+12,0,0,14,0.699999988,0,0,0,0,-0.120864876,0.185577393,0.17149353,0.812516404,-0.041947526,-2472541.345,-4703738.688,96.6,-4.354494496,-163.750971,6.746089941,-20.95188812,10.0331695,1.979660129,2.212267809,165.388139,0,-61.08425209,-0.058218031,4,-61.08425209,-2472508.931,-4703727.592,161.1027928,13.60663484,-5.818498246,8.348107364,3.113872746,10.17574658,0,0,9600,0,0,0,0,97,-7.497566932,0.36342414,7.506369762,-0.131656991,0.009117015,165.388139,0,0
66616700,-117.7296817,33.66499833,96.6,22.68699998,-4.216564178,9.72269249,1.3252002,1.53228E+12,0,0,14,0.699999988,0,0,0,0,0.20336917,-0.787567139,0.209259033,0.83677967,-0.127343817,-2472540.573,-4703740.729,96.6,-3.582421004,-165.7918283,7.582322008,-20.79188985,8.362320674,1.599982644,2.182016527,167.5701555,0,-74.66345847,-0.135792064,4,-74.66345847,-2472488.365,-4703719.812,158.166438,10.59764892,-3.523095553,8.794569859,2.58793401,9.473999223,0,0,9700,0,0,0,0,98,-6.445615266,0.384614071,6.457080156,-0.107393724,-0.076279276,167.5701555,0,0
66616800,-117.7296717,33.66498,96.5,22.68699998,-3.750879765,8.796257019,0.290875793,1.53228E+12,0,0,14,0.699999988,0,0,0,0,-0.301971436,-0.270263672,0.181015015,0.831398897,-0.135217426,-2472539.708,-4703742.77,96.5,-2.717698693,-167.8326856,8.241474389,-20.6771375,6.591523804,1.147523576,2.216493474,169.786649,0,-96.98605517,-0.223225967,4,-96.98605517,-2472494.7,-4703722.496,155.7509162,9.562595702,-1.289998712,9.131032961,1.886497061,9.221705895,0,0,9800,0,0,0,0,99,-5.106739797,0.531598198,5.134334232,-0.112774498,-0.084152885,169.786649,0,0
66616900,-117.7296617,33.66496333,96.5,22.63555554,3.704818487,9.472510338,0.49130249,1.53228E+12,0,0,14,0.699999988,0,0,0,0,-0.038955666,-0.521682739,0.091293335,0.839966356,-0.171078079,-2472538.751,-4703744.774,96.5,-1.760327562,-169.8364365,8.719609734,-20.57900361,4.781353458,0.981338873,2.2207154,172.0073644,0,-133.8413553,-0.368553002,4,-133.8413553,-2472378.092,-4703666.782,154.1057856,10.17124044,1.053250292,9.528065487,1.103830042,9.586102863,0,0,9900,0,0,0,0,100,-3.548106241,0.540006901,3.588964384,-0.104207039,-0.120013538,172.0073644,0,0
66617000,-117.72965,33.664945,96.5,22.63555554,7.92300415,11.02175617,-0.809536695,1.53228E+12,0,0,14,0.699999988,0,0,0,0,-0.715774536,0.017791716,0.094192505,0.859914735,-0.165076788,-2472537.762,-4703746.777,96.5,-0.772073492,-171.8401873,8.991993426,-20.55292353,2.723836917,0.260800806,2.234203106,174.2415675,0,-248.2609874,-1.14419632,0,0,-2472817.142,-4703883.322,153.9532193,13.57398629,3.279279691,9.804334615,0.29112838,10.33821322,0,0,10000,0,0,0,0,101,-1.809123732,0.543370382,1.888962692,-0.084258659,-0.114012247,174.2415675,0,0
66617100,-117.7296383,33.66492667,96.5,22.4812222,8.434405327,11.28068161,-1.019554615,1.53228E+12,0,0,14,0.699999988,0,0,0,0,0.487045288,0.058364891,-0.144073486,0.879692065,-0.159452164,-2472536.774,-4703748.818,96.5,0.216180577,-173.8810446,9.023694123,-20.57815449,0.317006967,-0.252309627,2.267541565,176.509109,0,-3426.674788,-31.784138,0,0,-2472643.933,-4703799.449,154.7102327,14.08520397,5.341460387,10.13703891,-0.472431179,11.45821788,0,0,10100,0,0,0,0,102,-0.010767601,0.657560568,0.657648722,-0.06448133,-0.108387623,176.509109,0,0
66617200,-117.7296283,33.66490833,96.5,22.37833331,8.508626938,10.05428791,0.647392869,1.53228E+12,0,0,14,0.699999988,0,0,0,0,0.003753694,-0.722167969,0.045150757,0.874674437,-0.157401542,-2472535.817,-4703750.896,96.5,1.173551708,-175.9590084,8.841566554,-20.65227044,-1.821275685,-0.741159519,2.287901474,178.7970105,0,329.2794243,37.55954212,0,0,-2472583.879,-4703771.78,156.5141053,13.17138709,7.205106252,10.44860845,-1.105588899,12.69200436,0,0,10200,0,0,0,0,103,1.775644365,0.56069231,1.862065728,-0.069498958,-0.106337002,178.7970105,0,0
66617300,-117.7296183,33.66488833,96.5,22.27544443,10.28640556,9.370241165,-1.305808783,1.53228E+12,0,0,14,0.699999988,0,0,0,0,-0.048675522,-0.379440308,-0.275848389,0.880981831,-0.149133162,-2472534.952,-4703753.011,96.5,2.038274019,-178.0740788,8.406540117,-20.82464158,-4.350264375,-1.723711414,2.285009225,181.0820197,0,138.2468284,-1.910325959,0,0,-2472590.489,-4703774.483,158.862813,13.91443707,8.609996274,10.69117787,-1.68990626,13.72710166,0,0,10300,0,0,0,0,104,3.468116601,0.645452035,3.527667939,-0.063191564,-0.098068622,181.0820197,0,0
66617400,-117.72961,33.66487,96.5,22.37833331,11.29269981,11.0063076,-1.65913868,1.53228E+12,0,0,14,0.699999988,0,0,0,0,0.193344161,-0.889480591,-0.097763062,0.888768989,-0.146484102,-2472534.18,-4703755.126,96.5,2.810347511,-180.1891491,7.740320702,-21.0361935,-6.662194154,-2.115519148,2.251581657,183.3336014,0,92.27547718,-0.459713512,5,92.27547718,-2472582.45,-4703771.548,161.2113603,15.76907975,9.496175401,10.85570663,-1.959578522,14.42302721,0,0,10400,0,0,0,0,105,4.965041202,0.780159456,5.025960894,-0.055404406,-0.095419561,183.3336014,0,0
66617500,-117.7296033,33.66485,96.5,22.58411109,10.75887108,10.6703186,0.237572134,1.53228E+12,0,0,14,0.699999988,0,0,0,0,0.129394561,-0.520599365,-0.212432861,0.897545,-0.136078759,-2472533.5,-4703757.279,96.5,3.489772185,-182.3413259,6.890863185,-21.33387033,-8.494575169,-2.97676834,2.2568746,185.590476,0,71.63513176,-0.206403454,5,71.63513176,-2472574.115,-4703768.917,164.01002,15.15285471,9.856576623,10.90588084,-2.26032671,14.70001155,0,0,10500,0,0,0,0,106,6.237499906,0.918230358,6.304724583,-0.046628394,-0.085014218,185.590476,0,0
66617600,-117.7295967,33.66483167,96.5,22.84133331,8.626844406,11.68769836,-1.550788522,1.53228E+12,0,0,14,0.699999988,0,0,0,0,0.413192779,-0.707138062,-0.153213501,0.920271356,-0.137521419,-2472532.945,-4703759.431,96.5,4.045665099,-184.4935027,5.90056977,-21.65617162,-9.902934142,-3.223012828,2.222809485,187.8132855,0,62.1214544,-0.095136774,5,62.1214544,-2472582.017,-4703770.958,166.7807864,14.52669052,9.581805169,10.83777082,-2.453968614,14.46610752,0,0,10600,0,0,0,0,107,7.251654337,1.256260215,7.359665777,-0.023902039,-0.086456878,187.8132855,0,0
66617700,-117.7295917,33.66481167,96.5,23.09855554,7.864250183,9.986404419,-4.098136902,1.53228E+12,0,0,14,0.699999988,0,0,0,0,-0.084182732,-0.233566284,-0.479522705,0.924552016,-0.128124013,-2472532.481,-4703761.62,96.5,4.508909194,-186.6827861,4.834154302,-22.01413589,-10.66415469,-3.579642758,2.237757034,190.0510425,0,58.27779318,-0.038436612,5,58.27779318,-2472583.161,-4703771.2,169.2956951,12.71120388,8.808723361,10.79447271,-2.470169679,13.93248895,0,0,10700,0,0,0,0,108,7.969375009,1.707975735,8.150344726,-0.019621379,-0.077059472,190.0510425,0,0
